{
"type": "FeatureCollection",
"name": "locations",
"crs": { "type": "name", "properties": { "name": "urn:ogc:def:crs:EPSG::4269" } },
"features": [
{ "type": "Feature", "properties": { "field_1": 0, "city": "Alhambra", "street_address": "1210 N Atlantic Blvd", "zip": 91801, "lat": 34.1059937, "lon": -118.1343897, "name": "In-N-Out Burger", "rating": 4.6, "hours": "Monday: 10:30 AM – 1:00 AM, Tuesday: 10:30 AM – 1:00 AM, Wednesday: 10:30 AM – 1:00 AM, Thursday: 10:30 AM – 1:00 AM, Friday: 10:30 AM – 1:30 AM, Saturday: 10:30 AM – 1:30 AM, Sunday: 10:30 AM – 1:00 AM", "place_id": "ChIJ48hKusLEwoARrSF8DOjZKgY", "elevation": 171.80638122558591 }, "geometry": { "type": "Point", "coordinates": [ -118.1343897, 34.1059937 ] } },
{ "type": "Feature", "properties": { "field_1": 1, "city": "Arcadia", "street_address": "420 N Santa Anita Ave", "zip": 91006, "lat": 34.1453078, "lon": -118.03124, "name": "In-N-Out Burger", "rating": 4.6, "hours": "Monday: 10:30 AM – 1:00 AM, Tuesday: 10:30 AM – 1:00 AM, Wednesday: 10:30 AM – 1:00 AM, Thursday: 10:30 AM – 1:00 AM, Friday: 10:30 AM – 1:30 AM, Saturday: 10:30 AM – 1:30 AM, Sunday: 10:30 AM – 1:00 AM", "place_id": "ChIJq5HEVIOMUocR1aaT_hDXIiQ", "elevation": 155.33979797363281 }, "geometry": { "type": "Point", "coordinates": [ -118.03124, 34.1453078 ] } },
{ "type": "Feature", "properties": { "field_1": 2, "city": "Azusa", "street_address": "324 S Azusa Ave", "zip": 91702, "lat": 34.1176435, "lon": -117.9073473, "name": "In-N-Out Burger", "rating": 4.6, "hours": "Monday: 10:30 AM – 1:00 AM, Tuesday: 10:30 AM – 1:00 AM, Wednesday: 10:30 AM – 1:00 AM, Thursday: 10:30 AM – 1:00 AM, Friday: 10:30 AM – 1:30 AM, Saturday: 10:30 AM – 1:30 AM, Sunday: 10:30 AM – 1:00 AM", "place_id": "ChIJn_xtKuQnw4AR1IUB21Ymr6I", "elevation": 160.41874694824219 }, "geometry": { "type": "Point", "coordinates": [ -117.9073473, 34.1176435 ] } },
{ "type": "Feature", "properties": { "field_1": 3, "city": "Azusa", "street_address": "988 E Alosta Ave", "zip": 91702, "lat": 34.12835, "lon": -117.886278, "name": "In-N-Out Burger", "rating": 4.7, "hours": "Monday: 10:30 AM – 1:00 AM, Tuesday: 10:30 AM – 1:00 AM, Wednesday: 10:30 AM – 1:00 AM, Thursday: 10:30 AM – 1:00 AM, Friday: 10:30 AM – 1:30 AM, Saturday: 10:30 AM – 1:30 AM, Sunday: 10:30 AM – 1:00 AM", "place_id": "ChIJSSkBJKgnw4ARVYWuSipUxk0", "elevation": 192.8702087402344 }, "geometry": { "type": "Point", "coordinates": [ -117.886278, 34.12835 ] } },
{ "type": "Feature", "properties": { "field_1": 4, "city": "Baldwin Park", "street_address": "13850 Francisquito Ave", "zip": 91706, "lat": 34.0676782, "lon": -117.9734536, "name": "In-N-Out Burger", "rating": 4.7, "hours": "Monday: 10:30 AM – 1:00 AM, Tuesday: 10:30 AM – 1:00 AM, Wednesday: 10:30 AM – 1:00 AM, Thursday: 10:30 AM – 1:00 AM, Friday: 10:30 AM – 1:30 AM, Saturday: 10:30 AM – 1:30 AM, Sunday: 10:30 AM – 1:00 AM", "place_id": "ChIJ3_hJn__AwoARsO1trxoBg5I", "elevation": 102.03236389160161 }, "geometry": { "type": "Point", "coordinates": [ -117.9734536, 34.0676782 ] } },
{ "type": "Feature", "properties": { "field_1": 5, "city": "Bellflower", "street_address": "17325 Bellflower Blvd", "zip": 90706, "lat": 33.8750268, "lon": -118.1253889, "name": "In-N-Out Burger", "rating": 4.6, "hours": "Monday: 10:30 AM – 1:00 AM, Tuesday: 10:30 AM – 1:00 AM, Wednesday: 10:30 AM – 1:00 AM, Thursday: 10:30 AM – 1:00 AM, Friday: 10:30 AM – 1:30 AM, Saturday: 10:30 AM – 1:30 AM, Sunday: 10:30 AM – 1:00 AM", "place_id": "ChIJT4vKfmgz3YAR8ZnNlaVTUQU", "elevation": 19.368412017822269 }, "geometry": { "type": "Point", "coordinates": [ -118.1253889, 33.8750268 ] } },
{ "type": "Feature", "properties": { "field_1": 6, "city": "Burbank", "street_address": "761 N 1st St", "zip": 91502, "lat": 34.184954, "lon": -118.316081, "name": "In-N-Out Burger", "rating": 4.6, "hours": "Monday: 10:30 AM – 1:00 AM, Tuesday: 10:30 AM – 1:00 AM, Wednesday: 10:30 AM – 1:00 AM, Thursday: 10:30 AM – 1:00 AM, Friday: 10:30 AM – 1:30 AM, Saturday: 10:30 AM – 1:30 AM, Sunday: 10:30 AM – 1:00 AM", "place_id": "ChIJFZo6iUSVwoARNU6w60iDGqY", "elevation": 183.40705871582031 }, "geometry": { "type": "Point", "coordinates": [ -118.316081, 34.184954 ] } },
{ "type": "Feature", "properties": { "field_1": 7, "city": "Camarillo", "street_address": "1316 Ventura Blvd", "zip": 93010, "lat": 34.2172777, "lon": -119.0530387, "name": "In-N-Out Burger", "rating": 4.6, "hours": "Monday: 10:30 AM – 1:00 AM, Tuesday: 10:30 AM – 1:00 AM, Wednesday: 10:30 AM – 1:00 AM, Thursday: 10:30 AM – 1:00 AM, Friday: 10:30 AM – 1:30 AM, Saturday: 10:30 AM – 1:30 AM, Sunday: 10:30 AM – 1:00 AM", "place_id": "ChIJ_f1wYeRJ6IAR4DQaps275_I", "elevation": 38.435478210449219 }, "geometry": { "type": "Point", "coordinates": [ -119.0530387, 34.2172777 ] } },
{ "type": "Feature", "properties": { "field_1": 8, "city": "Canoga Park", "street_address": "6841 Topanga Canyon Blvd", "zip": 91303, "lat": 34.1949248, "lon": -118.6063827, "name": "In-N-Out Burger", "rating": 4.6, "hours": "Monday: 10:30 AM – 1:00 AM, Tuesday: 10:30 AM – 1:00 AM, Wednesday: 10:30 AM – 1:00 AM, Thursday: 10:30 AM – 1:00 AM, Friday: 10:30 AM – 1:30 AM, Saturday: 10:30 AM – 1:30 AM, Sunday: 10:30 AM – 1:00 AM", "place_id": "ChIJDWLiTDycwoARzueB5sxtmS8", "elevation": 243.597900390625 }, "geometry": { "type": "Point", "coordinates": [ -118.6063827, 34.1949248 ] } },
{ "type": "Feature", "properties": { "field_1": 9, "city": "Cerritos", "street_address": "10900 Alondra Blvd", "zip": 90703, "lat": 33.8870852, "lon": -118.1016148, "name": "In-N-Out Burger", "rating": 4.6, "hours": "Monday: 10:30 AM – 1:00 AM, Tuesday: 10:30 AM – 1:00 AM, Wednesday: 10:30 AM – 1:00 AM, Thursday: 10:30 AM – 1:00 AM, Friday: 10:30 AM – 1:30 AM, Saturday: 10:30 AM – 1:30 AM, Sunday: 10:30 AM – 1:00 AM", "place_id": "ChIJja9CmFot3YARks5NaaQebhY", "elevation": 22.209629058837891 }, "geometry": { "type": "Point", "coordinates": [ -118.1016148, 33.8870852 ] } },
{ "type": "Feature", "properties": { "field_1": 10, "city": "Compton", "street_address": "2200 S Central Ave", "zip": 90220, "lat": 33.8723526, "lon": -118.2480468, "name": "In-N-Out Burger", "rating": 4.6, "hours": "Monday: 10:30 AM – 1:00 AM, Tuesday: 10:30 AM – 1:00 AM, Wednesday: 10:30 AM – 1:00 AM, Thursday: 10:30 AM – 1:00 AM, Friday: 10:30 AM – 1:30 AM, Saturday: 10:30 AM – 1:30 AM, Sunday: 10:30 AM – 1:00 AM", "place_id": "ChIJ8eTjV6_LwoARtAf5YOgQ9Uo", "elevation": 41.239009857177727 }, "geometry": { "type": "Point", "coordinates": [ -118.2480468, 33.8723526 ] } },
{ "type": "Feature", "properties": { "field_1": 11, "city": "Covina", "street_address": "1371 Grand Ave", "zip": 91722, "lat": 34.1049029, "lon": -117.8730604, "name": "In-N-Out Burger", "rating": 4.7, "hours": "Monday: 10:30 AM – 1:00 AM, Tuesday: 10:30 AM – 1:00 AM, Wednesday: 10:30 AM – 1:00 AM, Thursday: 10:30 AM – 1:00 AM, Friday: 10:30 AM – 1:30 AM, Saturday: 10:30 AM – 1:30 AM, Sunday: 10:30 AM – 1:00 AM", "place_id": "ChIJnxDhiQnXwoARYhAnSuBsJcU", "elevation": 197.86418151855469 }, "geometry": { "type": "Point", "coordinates": [ -117.8730604, 34.1049029 ] } },
{ "type": "Feature", "properties": { "field_1": 12, "city": "Culver City", "street_address": "13425 Washington Blvd", "zip": 90292, "lat": 33.9916475, "lon": -118.4462335, "name": "In-N-Out Burger", "rating": 4.5, "hours": "Monday: 10:30 AM – 1:00 AM, Tuesday: 10:30 AM – 1:00 AM, Wednesday: 10:30 AM – 1:00 AM, Thursday: 10:30 AM – 1:00 AM, Friday: 10:30 AM – 1:30 AM, Saturday: 10:30 AM – 1:30 AM, Sunday: 10:30 AM – 1:00 AM", "place_id": "ChIJ3zcEqI66woAR1Ej8yoqARk8", "elevation": 7.5433845520019531 }, "geometry": { "type": "Point", "coordinates": [ -118.4462335, 33.9916475 ] } },
{ "type": "Feature", "properties": { "field_1": 13, "city": "Diamond Bar", "street_address": "21133 Golden Springs Dr", "zip": 91789, "lat": 34.0004987, "lon": -117.8434861, "name": "In-N-Out Burger", "rating": 4.6, "hours": "Monday: 10:30 AM – 1:00 AM, Tuesday: 10:30 AM – 1:00 AM, Wednesday: 10:30 AM – 1:00 AM, Thursday: 10:30 AM – 1:00 AM, Friday: 10:30 AM – 1:30 AM, Saturday: 10:30 AM – 1:30 AM, Sunday: 10:30 AM – 1:00 AM", "place_id": "ChIJPS4ihHcrw4AR0CFX7IOz_Q8", "elevation": 179.00697326660159 }, "geometry": { "type": "Point", "coordinates": [ -117.8434861, 34.0004987 ] } },
{ "type": "Feature", "properties": { "field_1": 14, "city": "Downey", "street_address": "8767 Firestone Blvd", "zip": 90241, "lat": 33.9360724, "lon": -118.1242232, "name": "In-N-Out Burger", "rating": 4.7, "hours": "Monday: 10:30 AM – 1:00 AM, Tuesday: 10:30 AM – 1:00 AM, Wednesday: 10:30 AM – 1:00 AM, Thursday: 10:30 AM – 1:00 AM, Friday: 10:30 AM – 1:30 AM, Saturday: 10:30 AM – 1:30 AM, Sunday: 10:30 AM – 1:00 AM", "place_id": "ChIJc6ml1ZzNwoAR8De2jv6hql0", "elevation": 34.498741149902337 }, "geometry": { "type": "Point", "coordinates": [ -118.1242232, 33.9360724 ] } },
{ "type": "Feature", "properties": { "field_1": 15, "city": "El Segundo", "street_address": "600 N Sepulveda Blvd", "zip": 90266, "lat": 33.9239, "lon": -118.39539, "name": "In-N-Out Burger", "rating": 4.5, "hours": "Monday: 10:30 AM – 1:00 AM, Tuesday: 10:30 AM – 1:00 AM, Wednesday: 10:30 AM – 1:00 AM, Thursday: 10:30 AM – 1:00 AM, Friday: 10:30 AM – 1:30 AM, Saturday: 10:30 AM – 1:30 AM, Sunday: 10:30 AM – 1:00 AM", "place_id": null, "elevation": 37.140270233154297 }, "geometry": { "type": "Point", "coordinates": [ -118.39539, 33.9239 ] } },
{ "type": "Feature", "properties": { "field_1": 16, "city": "Gardena", "street_address": "1701 Artesia Blvd", "zip": 90248, "lat": 33.8731232, "lon": -118.3073577, "name": "In-N-Out Burger", "rating": 4.6, "hours": "Monday: 10:30 AM – 1:00 AM, Tuesday: 10:30 AM – 1:00 AM, Wednesday: 10:30 AM – 1:00 AM, Thursday: 10:30 AM – 1:00 AM, Friday: 10:30 AM – 1:30 AM, Saturday: 10:30 AM – 1:30 AM, Sunday: 10:30 AM – 1:00 AM", "place_id": "ChIJ2_4hJWS1woAR89g78FFZh38", "elevation": 10.440945625305179 }, "geometry": { "type": "Point", "coordinates": [ -118.3073577, 33.8731232 ] } },
{ "type": "Feature", "properties": { "field_1": 17, "city": "Glendale", "street_address": "310 Harvey Dr", "zip": 91206, "lat": 34.1486551, "lon": -118.2273294, "name": "In-N-Out Burger", "rating": 4.6, "hours": "Monday: 10:30 AM – 1:00 AM, Tuesday: 10:30 AM – 1:00 AM, Wednesday: 10:30 AM – 1:00 AM, Thursday: 10:30 AM – 1:00 AM, Friday: 10:30 AM – 1:30 AM, Saturday: 10:30 AM – 1:30 AM, Sunday: 10:30 AM – 1:00 AM", "place_id": "ChIJ-TTKY3PBwoARUi52zuHAUNM", "elevation": 210.26286315917969 }, "geometry": { "type": "Point", "coordinates": [ -118.2273294, 34.1486551 ] } },
{ "type": "Feature", "properties": { "field_1": 18, "city": "Glendale", "street_address": "119 S Brand Blvd", "zip": 91210, "lat": 34.1455831, "lon": -118.2552662, "name": "In-N-Out Burger", "rating": 4.6, "hours": "Monday: 10:30 AM – 1:00 AM, Tuesday: 10:30 AM – 1:00 AM, Wednesday: 10:30 AM – 1:00 AM, Thursday: 10:30 AM – 1:00 AM, Friday: 10:30 AM – 1:30 AM, Saturday: 10:30 AM – 1:30 AM, Sunday: 10:30 AM – 1:00 AM", "place_id": "ChIJX16Kof_AwoAR6pUSP5qWddA", "elevation": 162.9302978515625 }, "geometry": { "type": "Point", "coordinates": [ -118.2552662, 34.1455831 ] } },
{ "type": "Feature", "properties": { "field_1": 19, "city": "Glendora", "street_address": "1261 S Lone Hill Ave", "zip": 91740, "lat": 34.1167671, "lon": -117.8294641, "name": "In-N-Out Burger", "rating": 4.7, "hours": "Monday: 10:30 AM – 1:00 AM, Tuesday: 10:30 AM – 1:00 AM, Wednesday: 10:30 AM – 1:00 AM, Thursday: 10:30 AM – 1:00 AM, Friday: 10:30 AM – 1:30 AM, Saturday: 10:30 AM – 1:30 AM, Sunday: 10:30 AM – 1:00 AM", "place_id": "ChIJwRm8fFMvw4AR5__hsWgIvGc", "elevation": 267.61383056640619 }, "geometry": { "type": "Point", "coordinates": [ -117.8294641, 34.1167671 ] } },
{ "type": "Feature", "properties": { "field_1": 20, "city": "Hacienda Heights", "street_address": "14620 Gale Ave", "zip": 91745, "lat": 34.0194329, "lon": -117.9872484, "name": "In-N-Out Burger", "rating": 4.6, "hours": "Monday: 10:30 AM – 1:00 AM, Tuesday: 10:30 AM – 1:00 AM, Wednesday: 10:30 AM – 1:00 AM, Thursday: 10:30 AM – 1:00 AM, Friday: 10:30 AM – 1:30 AM, Saturday: 10:30 AM – 1:30 AM, Sunday: 10:30 AM – 1:00 AM", "place_id": "ChIJPa_okJDWwoAR0I7WROPDnrM", "elevation": 110.476432800293 }, "geometry": { "type": "Point", "coordinates": [ -117.9872484, 34.0194329 ] } },
{ "type": "Feature", "properties": { "field_1": 21, "city": "Hollywood", "street_address": "7009 Sunset Blvd", "zip": 90028, "lat": 34.0982287, "lon": -118.3416747, "name": "In-N-Out Burger", "rating": 4.5, "hours": "Monday: 10:30 AM – 1:00 AM, Tuesday: 10:30 AM – 1:00 AM, Wednesday: 10:30 AM – 1:00 AM, Thursday: 10:30 AM – 1:00 AM, Friday: 10:30 AM – 1:30 AM, Saturday: 10:30 AM – 1:30 AM, Sunday: 10:30 AM – 1:00 AM", "place_id": "ChIJDaqRkya_woARN85cYzM3cbA", "elevation": 105.60777282714839 }, "geometry": { "type": "Point", "coordinates": [ -118.3416747, 34.0982287 ] } },
{ "type": "Feature", "properties": { "field_1": 22, "city": "Huntington Park", "street_address": "6000 Pacific Blvd", "zip": 90255, "lat": 33.987022, "lon": -118.2248164, "name": "In-N-Out Burger", "rating": 4.6, "hours": "Monday: 10:30 AM – 1:00 AM, Tuesday: 10:30 AM – 1:00 AM, Wednesday: 10:30 AM – 1:00 AM, Thursday: 10:30 AM – 1:00 AM, Friday: 10:30 AM – 1:30 AM, Saturday: 10:30 AM – 1:30 AM, Sunday: 10:30 AM – 1:00 AM", "place_id": "ChIJp3LZFiHJwoAR20ih6mmhqp0", "elevation": 52.715469360351562 }, "geometry": { "type": "Point", "coordinates": [ -118.2248164, 33.987022 ] } },
{ "type": "Feature", "properties": { "field_1": 23, "city": "Industry", "street_address": "17849 Colima Rd", "zip": 91748, "lat": 33.9903118, "lon": -117.9154051, "name": "In-N-Out Burger", "rating": 4.7, "hours": "Monday: 10:30 AM – 1:00 AM, Tuesday: 10:30 AM – 1:00 AM, Wednesday: 10:30 AM – 1:00 AM, Thursday: 10:30 AM – 1:00 AM, Friday: 10:30 AM – 1:30 AM, Saturday: 10:30 AM – 1:30 AM, Sunday: 10:30 AM – 1:00 AM", "place_id": "ChIJbzNAfXsqw4AROkEFYd16l0I", "elevation": 136.44378662109381 }, "geometry": { "type": "Point", "coordinates": [ -117.9154051, 33.9903118 ] } },
{ "type": "Feature", "properties": { "field_1": 24, "city": "Industry", "street_address": "21620 Valley Blvd", "zip": 91789, "lat": 34.027487, "lon": -117.8346687, "name": "In-N-Out Burger", "rating": 4.7, "hours": "Monday: 10:30 AM – 1:00 AM, Tuesday: 10:30 AM – 1:00 AM, Wednesday: 10:30 AM – 1:00 AM, Thursday: 10:30 AM – 1:00 AM, Friday: 10:30 AM – 1:30 AM, Saturday: 10:30 AM – 1:30 AM, Sunday: 10:30 AM – 1:00 AM", "place_id": "ChIJiwk1-vQrw4ARVR5LwUN-UjQ", "elevation": 184.7025451660156 }, "geometry": { "type": "Point", "coordinates": [ -117.8346687, 34.027487 ] } },
{ "type": "Feature", "properties": { "field_1": 25, "city": "Inglewood", "street_address": "3411 W Century Blvd", "zip": 90303, "lat": 33.9457913, "lon": -118.3323452, "name": "In-N-Out Burger", "rating": 4.6, "hours": "Monday: 10:30 AM – 1:00 AM, Tuesday: 10:30 AM – 1:00 AM, Wednesday: 10:30 AM – 1:00 AM, Thursday: 10:30 AM – 1:00 AM, Friday: 10:30 AM – 1:30 AM, Saturday: 10:30 AM – 1:30 AM, Sunday: 10:30 AM – 1:00 AM", "place_id": "ChIJNZfs_EK2woARFSCfjQganDg", "elevation": 41.610740661621087 }, "geometry": { "type": "Point", "coordinates": [ -118.3323452, 33.9457913 ] } },
{ "type": "Feature", "properties": { "field_1": 26, "city": "La Mirada", "street_address": "14341 Firestone Blvd", "zip": 90638, "lat": 33.8826416, "lon": -118.0246209, "name": "In-N-Out Burger", "rating": 4.7, "hours": "Monday: 10:30 AM – 1:00 AM, Tuesday: 10:30 AM – 1:00 AM, Wednesday: 10:30 AM – 1:00 AM, Thursday: 10:30 AM – 1:00 AM, Friday: 10:30 AM – 1:30 AM, Saturday: 10:30 AM – 1:30 AM, Sunday: 10:30 AM – 1:00 AM", "place_id": "ChIJHc5dc4Qs3YARtQICsOW_Leo", "elevation": 20.468074798583981 }, "geometry": { "type": "Point", "coordinates": [ -118.0246209, 33.8826416 ] } },
{ "type": "Feature", "properties": { "field_1": 27, "city": "La Puente", "street_address": "15259 E Amar Rd", "zip": 91792, "lat": 34.03755, "lon": -117.95167, "name": "In-N-Out Burger", "rating": 4.6, "hours": "Monday: 10:30 AM – 1:00 AM, Tuesday: 10:30 AM – 1:00 AM, Wednesday: 10:30 AM – 1:00 AM, Thursday: 10:30 AM – 1:00 AM, Friday: 10:30 AM – 1:30 AM, Saturday: 10:30 AM – 1:30 AM, Sunday: 10:30 AM – 1:00 AM", "place_id": null, "elevation": 99.824722290039062 }, "geometry": { "type": "Point", "coordinates": [ -117.95167, 34.03755 ] } },
{ "type": "Feature", "properties": { "field_1": 28, "city": "La Verne", "street_address": "2098 Foothill Blvd", "zip": 91750, "lat": 34.1131477, "lon": -117.7655802, "name": "In-N-Out Burger", "rating": 4.7, "hours": "Monday: 10:30 AM – 1:00 AM, Tuesday: 10:30 AM – 1:00 AM, Wednesday: 10:30 AM – 1:00 AM, Thursday: 10:30 AM – 1:00 AM, Friday: 10:30 AM – 1:30 AM, Saturday: 10:30 AM – 1:30 AM, Sunday: 10:30 AM – 1:00 AM", "place_id": "ChIJZXiNRrcvw4ARe-a1qJ0qzRI", "elevation": 338.82968139648438 }, "geometry": { "type": "Point", "coordinates": [ -117.7655802, 34.1131477 ] } },
{ "type": "Feature", "properties": { "field_1": 29, "city": "Lakewood", "street_address": "5820 Bellflower Blvd", "zip": 90713, "lat": 33.8610482, "lon": -118.1246689, "name": "In-N-Out Burger", "rating": 4.6, "hours": "Monday: 10:30 AM – 1:00 AM, Tuesday: 10:30 AM – 1:00 AM, Wednesday: 10:30 AM – 1:00 AM, Thursday: 10:30 AM – 1:00 AM, Friday: 10:30 AM – 1:30 AM, Saturday: 10:30 AM – 1:30 AM, Sunday: 10:30 AM – 1:00 AM", "place_id": "ChIJnbQ2-48y3YARgirIVsmPfVQ", "elevation": 17.55470085144043 }, "geometry": { "type": "Point", "coordinates": [ -118.1246689, 33.8610482 ] } },
{ "type": "Feature", "properties": { "field_1": 30, "city": "Lancaster", "street_address": "2021 W Ave I", "zip": 93536, "lat": 34.7044701, "lon": -118.1669994, "name": "In-N-Out Burger", "rating": 4.7, "hours": "Monday: 10:30 AM – 1:00 AM, Tuesday: 10:30 AM – 1:00 AM, Wednesday: 10:30 AM – 1:00 AM, Thursday: 10:30 AM – 1:00 AM, Friday: 10:30 AM – 1:30 AM, Saturday: 10:30 AM – 1:30 AM, Sunday: 10:30 AM – 1:00 AM", "place_id": "ChIJQdZt3NNEwoARcAF_WauxvUc", "elevation": 709.256591796875 }, "geometry": { "type": "Point", "coordinates": [ -118.1669994, 34.7044701 ] } },
{ "type": "Feature", "properties": { "field_1": 31, "city": "Long Beach", "street_address": "6391 Pacific Coast Hwy", "zip": 90803, "lat": 33.7584358, "lon": -118.1110948, "name": "In-N-Out Burger", "rating": 4.6, "hours": "Monday: 10:30 AM – 1:00 AM, Tuesday: 10:30 AM – 1:00 AM, Wednesday: 10:30 AM – 1:00 AM, Thursday: 10:30 AM – 1:00 AM, Friday: 10:30 AM – 1:30 AM, Saturday: 10:30 AM – 1:30 AM, Sunday: 10:30 AM – 1:00 AM", "place_id": "ChIJy9T1k9gv3YARIQPNoStldu0", "elevation": 3.906156063079834 }, "geometry": { "type": "Point", "coordinates": [ -118.1110948, 33.7584358 ] } },
{ "type": "Feature", "properties": { "field_1": 32, "city": "Long Beach", "street_address": "4600 E Los Coyotes Diagonal", "zip": 90815, "lat": 33.7911915, "lon": -118.1401318, "name": "In-N-Out Burger", "rating": 4.6, "hours": "Monday: 10:30 AM – 1:00 AM, Tuesday: 10:30 AM – 1:00 AM, Wednesday: 10:30 AM – 1:00 AM, Thursday: 10:30 AM – 1:00 AM, Friday: 10:30 AM – 1:30 AM, Saturday: 10:30 AM – 1:30 AM, Sunday: 10:30 AM – 1:00 AM", "place_id": "ChIJz3m29JMx3YARId4O4ll1KqU", "elevation": 7.9796581268310547 }, "geometry": { "type": "Point", "coordinates": [ -118.1401318, 33.7911915 ] } },
{ "type": "Feature", "properties": { "field_1": 33, "city": "Long Beach", "street_address": "7691 Carson Blvd", "zip": 90808, "lat": 33.8310886, "lon": -118.0848507, "name": "In-N-Out Burger", "rating": 4.7, "hours": "Monday: 10:30 AM – 1:00 AM, Tuesday: 10:30 AM – 1:00 AM, Wednesday: 10:30 AM – 1:00 AM, Thursday: 10:30 AM – 1:00 AM, Friday: 10:30 AM – 1:30 AM, Saturday: 10:30 AM – 1:30 AM, Sunday: 10:30 AM – 1:00 AM", "place_id": "ChIJve4wOsMt3YAREgJwNvRNmQw", "elevation": 10.461503028869631 }, "geometry": { "type": "Point", "coordinates": [ -118.0848507, 33.8310886 ] } },
{ "type": "Feature", "properties": { "field_1": 34, "city": "Long Beach", "street_address": "4041 N Lakewood Blvd", "zip": 90808, "lat": 33.8316622, "lon": -118.1431017, "name": "In-N-Out Burger", "rating": 4.7, "hours": "Monday: 10:30 AM – 1:00 AM, Tuesday: 10:30 AM – 1:00 AM, Wednesday: 10:30 AM – 1:00 AM, Thursday: 10:30 AM – 1:00 AM, Friday: 10:30 AM – 1:30 AM, Saturday: 10:30 AM – 1:30 AM, Sunday: 10:30 AM – 1:00 AM", "place_id": "ChIJdaVMSrsz3YAR-jGIl9eAWFQ", "elevation": 14.037679672241209 }, "geometry": { "type": "Point", "coordinates": [ -118.1431017, 33.8316622 ] } },
{ "type": "Feature", "properties": { "field_1": 35, "city": "Los Angeles", "street_address": "9245 Venice Blvd", "zip": 90034, "lat": 34.0264602, "lon": -118.3942849, "name": "In-N-Out Burger", "rating": 4.5, "hours": "Monday: 10:30 AM – 1:00 AM, Tuesday: 10:30 AM – 1:00 AM, Wednesday: 10:30 AM – 1:00 AM, Thursday: 10:30 AM – 1:00 AM, Friday: 10:30 AM – 1:30 AM, Saturday: 10:30 AM – 1:30 AM, Sunday: 10:30 AM – 1:00 AM", "place_id": "ChIJwbhVFCq6woARgQ74YpgDdhw", "elevation": 32.98187255859375 }, "geometry": { "type": "Point", "coordinates": [ -118.3942849, 34.0264602 ] } },
{ "type": "Feature", "properties": { "field_1": 36, "city": "Monterey Park", "street_address": "5500 Market Pl Dr", "zip": 91755, "lat": 34.0365008, "lon": -118.0974343, "name": "In-N-Out Burger", "rating": 4.7, "hours": "Monday: 10:30 AM – 1:00 AM, Tuesday: 10:30 AM – 1:00 AM, Wednesday: 10:30 AM – 1:00 AM, Thursday: 10:30 AM – 1:00 AM, Friday: 10:30 AM – 1:30 AM, Saturday: 10:30 AM – 1:30 AM, Sunday: 10:30 AM – 1:00 AM", "place_id": "ChIJQc07F9bRwoARSzkWmu6LJ6I", "elevation": 122.5247039794922 }, "geometry": { "type": "Point", "coordinates": [ -118.0974343, 34.0365008 ] } },
{ "type": "Feature", "properties": { "field_1": 37, "city": "Moorpark", "street_address": "856 New Los Angeles Ave", "zip": 93021, "lat": 34.2802008, "lon": -118.8654605, "name": "In-N-Out Burger", "rating": 4.7, "hours": "Monday: 10:30 AM – 1:00 AM, Tuesday: 10:30 AM – 1:00 AM, Wednesday: 10:30 AM – 1:00 AM, Thursday: 10:30 AM – 1:00 AM, Friday: 10:30 AM – 1:30 AM, Saturday: 10:30 AM – 1:30 AM, Sunday: 10:30 AM – 1:00 AM", "place_id": "ChIJJ8jdJwIy6IARwNYqa6kiyE4", "elevation": 166.97962951660159 }, "geometry": { "type": "Point", "coordinates": [ -118.8654605, 34.2802008 ] } },
{ "type": "Feature", "properties": { "field_1": 38, "city": "Newhall", "street_address": "25220 The Old Rd", "zip": 91381, "lat": 34.3771178, "lon": -118.5653501, "name": "In-N-Out Burger", "rating": 4.7, "hours": "Monday: 10:30 AM – 1:00 AM, Tuesday: 10:30 AM – 1:00 AM, Wednesday: 10:30 AM – 1:00 AM, Thursday: 10:30 AM – 1:00 AM, Friday: 10:30 AM – 1:30 AM, Saturday: 10:30 AM – 1:30 AM, Sunday: 10:30 AM – 1:00 AM", "place_id": "ChIJhabNFSHJwoARzwCQxNP6Ols", "elevation": 406.96707153320312 }, "geometry": { "type": "Point", "coordinates": [ -118.5653501, 34.3771178 ] } },
{ "type": "Feature", "properties": { "field_1": 39, "city": "North Hollywood", "street_address": "5864 Lankershim Blvd", "zip": 91601, "lat": 34.1774723, "lon": -118.3819181, "name": "In-N-Out Burger", "rating": 4.6, "hours": "Monday: 10:30 AM – 1:00 AM, Tuesday: 10:30 AM – 1:00 AM, Wednesday: 10:30 AM – 1:00 AM, Thursday: 10:30 AM – 1:00 AM, Friday: 10:30 AM – 1:30 AM, Saturday: 10:30 AM – 1:30 AM, Sunday: 10:30 AM – 1:00 AM", "place_id": "ChIJI25WUN2VwoAREUvf8-l0huA", "elevation": 201.462890625 }, "geometry": { "type": "Point", "coordinates": [ -118.3819181, 34.1774723 ] } },
{ "type": "Feature", "properties": { "field_1": 40, "city": "Northridge", "street_address": "9858 Balboa Blvd", "zip": 91325, "lat": 34.2500042, "lon": -118.5019746, "name": "In-N-Out Burger", "rating": 4.6, "hours": "Monday: 10:30 AM – 1:00 AM, Tuesday: 10:30 AM – 1:00 AM, Wednesday: 10:30 AM – 1:00 AM, Thursday: 10:30 AM – 1:00 AM, Friday: 10:30 AM – 1:30 AM, Saturday: 10:30 AM – 1:30 AM, Sunday: 10:30 AM – 1:00 AM", "place_id": "ChIJl7jGuImawoARzc4lb79jXWg", "elevation": 283.57974243164062 }, "geometry": { "type": "Point", "coordinates": [ -118.5019746, 34.2500042 ] } },
{ "type": "Feature", "properties": { "field_1": 41, "city": "Northridge", "street_address": "8830 Tampa Ave", "zip": 91324, "lat": 34.2308305, "lon": -118.5531238, "name": "In-N-Out Burger", "rating": 4.7, "hours": "Monday: 10:30 AM – 1:00 AM, Tuesday: 10:30 AM – 1:00 AM, Wednesday: 10:30 AM – 1:00 AM, Thursday: 10:30 AM – 1:00 AM, Friday: 10:30 AM – 1:30 AM, Saturday: 10:30 AM – 1:30 AM, Sunday: 10:30 AM – 1:00 AM", "place_id": "ChIJ64anfaGbwoARggXg0UQWTEU", "elevation": 247.80915832519531 }, "geometry": { "type": "Point", "coordinates": [ -118.5531238, 34.2308305 ] } },
{ "type": "Feature", "properties": { "field_1": 42, "city": "Norwalk", "street_address": "14330 Pioneer Blvd", "zip": 90650, "lat": 33.9012576, "lon": -118.0823417, "name": "In-N-Out Burger", "rating": 4.6, "hours": "Monday: 10:30 AM – 1:00 AM, Tuesday: 10:30 AM – 1:00 AM, Wednesday: 10:30 AM – 1:00 AM, Thursday: 10:30 AM – 1:00 AM, Friday: 10:30 AM – 1:30 AM, Saturday: 10:30 AM – 1:30 AM, Sunday: 10:30 AM – 1:00 AM", "place_id": "ChIJD3iTq0VN64ARnzTZUdPbTkE", "elevation": 26.812656402587891 }, "geometry": { "type": "Point", "coordinates": [ -118.0823417, 33.9012576 ] } },
{ "type": "Feature", "properties": { "field_1": 43, "city": "Oxnard", "street_address": "381 W Esplanade Dr", "zip": 93036, "lat": 34.2350342, "lon": -119.1796287, "name": "In-N-Out Burger", "rating": 4.6, "hours": "Monday: 10:30 AM – 1:00 AM, Tuesday: 10:30 AM – 1:00 AM, Wednesday: 10:30 AM – 1:00 AM, Thursday: 10:30 AM – 1:00 AM, Friday: 10:30 AM – 1:30 AM, Saturday: 10:30 AM – 1:30 AM, Sunday: 10:30 AM – 1:00 AM", "place_id": "ChIJv8zrm1ZM6IARM5a7SipcUOc", "elevation": 22.590349197387699 }, "geometry": { "type": "Point", "coordinates": [ -119.1796287, 34.2350342 ] } },
{ "type": "Feature", "properties": { "field_1": 44, "city": "Palmdale", "street_address": "142 E Palmdale Blvd", "zip": 93550, "lat": 34.5793258, "lon": -118.127949, "name": "In-N-Out Burger", "rating": 4.7, "hours": "Monday: 10:30 AM – 1:00 AM, Tuesday: 10:30 AM – 1:00 AM, Wednesday: 10:30 AM – 1:00 AM, Thursday: 10:30 AM – 1:00 AM, Friday: 10:30 AM – 1:30 AM, Saturday: 10:30 AM – 1:30 AM, Sunday: 10:30 AM – 1:00 AM", "place_id": "ChIJOzT-4zBYwoARWXJRBapAIv4", "elevation": 820.69110107421875 }, "geometry": { "type": "Point", "coordinates": [ -118.127949, 34.5793258 ] } },
{ "type": "Feature", "properties": { "field_1": 45, "city": "Panorama City", "street_address": "13651 Roscoe Blvd", "zip": 91402, "lat": 34.221955, "lon": -118.4307999, "name": "In-N-Out Burger", "rating": 4.6, "hours": "Monday: 10:30 AM – 1:00 AM, Tuesday: 10:30 AM – 1:00 AM, Wednesday: 10:30 AM – 1:00 AM, Thursday: 10:30 AM – 1:00 AM, Friday: 10:30 AM – 1:30 AM, Saturday: 10:30 AM – 1:30 AM, Sunday: 10:30 AM – 1:00 AM", "place_id": "ChIJf0lWStKWwoARyOb8-2PE7gM", "elevation": 245.01835632324219 }, "geometry": { "type": "Point", "coordinates": [ -118.4307999, 34.221955 ] } },
{ "type": "Feature", "properties": { "field_1": 46, "city": "Pasadena", "street_address": "2114 E Foothill Blvd", "zip": 91107, "lat": 34.1494623, "lon": -118.1067843, "name": "In-N-Out Burger", "rating": 4.6, "hours": "Monday: 10:30 AM – 1:00 AM, Tuesday: 10:30 AM – 1:00 AM, Wednesday: 10:30 AM – 1:00 AM, Thursday: 10:30 AM – 1:00 AM, Friday: 10:30 AM – 1:30 AM, Saturday: 10:30 AM – 1:30 AM, Sunday: 10:30 AM – 1:00 AM", "place_id": "ChIJmSJ_IazcwoARE0JCnRD1gOg", "elevation": 239.84257507324219 }, "geometry": { "type": "Point", "coordinates": [ -118.1067843, 34.1494623 ] } },
{ "type": "Feature", "properties": { "field_1": 47, "city": "Pico Rivera", "street_address": "9070 Whittier Blvd", "zip": 90660, "lat": 34.000531, "lon": -118.0830505, "name": "In-N-Out Burger", "rating": 4.7, "hours": "Monday: 10:30 AM – 1:00 AM, Tuesday: 10:30 AM – 1:00 AM, Wednesday: 10:30 AM – 1:00 AM, Thursday: 10:30 AM – 1:00 AM, Friday: 10:30 AM – 1:30 AM, Saturday: 10:30 AM – 1:30 AM, Sunday: 10:30 AM – 1:00 AM", "place_id": "ChIJIQiWpcHRwoAR4RZjXxUzkP0", "elevation": 54.394668579101562 }, "geometry": { "type": "Point", "coordinates": [ -118.0830505, 34.000531 ] } },
{ "type": "Feature", "properties": { "field_1": 48, "city": "Pomona", "street_address": "2505 Garey Ave", "zip": 91766, "lat": 34.0257827, "lon": -117.749484, "name": "In-N-Out Burger", "rating": 4.6, "hours": "Monday: 10:30 AM – 1:00 AM, Tuesday: 10:30 AM – 1:00 AM, Wednesday: 10:30 AM – 1:00 AM, Thursday: 10:30 AM – 1:00 AM, Friday: 10:30 AM – 1:30 AM, Saturday: 10:30 AM – 1:30 AM, Sunday: 10:30 AM – 1:00 AM", "place_id": "ChIJ41SjApTRwoARWQ1azFQ4iSo", "elevation": 233.81834411621091 }, "geometry": { "type": "Point", "coordinates": [ -117.749484, 34.0257827 ] } },
{ "type": "Feature", "properties": { "field_1": 49, "city": "Pomona", "street_address": "1851 Indian Hill Blvd", "zip": 91767, "lat": 34.0778678, "lon": -117.7195831, "name": "In-N-Out Burger", "rating": 4.6, "hours": "Monday: 10:30 AM – 1:00 AM, Tuesday: 10:30 AM – 1:00 AM, Wednesday: 10:30 AM – 1:00 AM, Thursday: 10:30 AM – 1:00 AM, Friday: 10:30 AM – 1:30 AM, Saturday: 10:30 AM – 1:30 AM, Sunday: 10:30 AM – 1:00 AM", "place_id": "ChIJwWhqH8Be7IAR4d1a45axax8", "elevation": 306.50100708007812 }, "geometry": { "type": "Point", "coordinates": [ -117.7195831, 34.0778678 ] } },
{ "type": "Feature", "properties": { "field_1": 50, "city": "Porter Ranch", "street_address": "19901 Rinaldi St", "zip": 91326, "lat": 34.2758444, "lon": -118.568076, "name": "In-N-Out Burger", "rating": 4.6, "hours": "Monday: 10:30 AM – 11:00 PM, Tuesday: 10:30 AM – 11:00 PM, Wednesday: 10:30 AM – 11:00 PM, Thursday: 10:30 AM – 11:00 PM, Friday: 10:30 AM – 1:00 AM, Saturday: 10:30 AM – 1:00 AM, Sunday: 10:30 AM – 11:00 PM", "place_id": "ChIJzTuIh62EwoARFaKH3wGhsqg", "elevation": 361.48794555664062 }, "geometry": { "type": "Point", "coordinates": [ -118.568076, 34.2758444 ] } },
{ "type": "Feature", "properties": { "field_1": 51, "city": "Redondo Beach", "street_address": "3801 Inglewood Ave", "zip": 90278, "lat": 33.8921163, "lon": -118.3617549, "name": "In-N-Out Burger", "rating": 4.6, "hours": "Monday: 10:30 AM – 1:00 AM, Tuesday: 10:30 AM – 1:00 AM, Wednesday: 10:30 AM – 1:00 AM, Thursday: 10:30 AM – 1:00 AM, Friday: 10:30 AM – 1:30 AM, Saturday: 10:30 AM – 1:30 AM, Sunday: 10:30 AM – 1:00 AM", "place_id": "ChIJIUEq5Ua0woARix-eCroc3Ak", "elevation": 18.389888763427731 }, "geometry": { "type": "Point", "coordinates": [ -118.3617549, 33.8921163 ] } },
{ "type": "Feature", "properties": { "field_1": 52, "city": "Rosemead", "street_address": "4242 Rosemead Blvd", "zip": 91770, "lat": 34.0839501, "lon": -118.0729673, "name": "In-N-Out Burger", "rating": 4.6, "hours": "Monday: 10:30 AM – 1:00 AM, Tuesday: 10:30 AM – 1:00 AM, Wednesday: 10:30 AM – 1:00 AM, Thursday: 10:30 AM – 1:00 AM, Friday: 10:30 AM – 1:30 AM, Saturday: 10:30 AM – 1:30 AM, Sunday: 10:30 AM – 1:00 AM", "place_id": "ChIJd1LQlo7awoARI_1xbmwu2Q8", "elevation": 101.36997985839839 }, "geometry": { "type": "Point", "coordinates": [ -118.0729673, 34.0839501 ] } },
{ "type": "Feature", "properties": { "field_1": 53, "city": "San Fernando", "street_address": "11455 Laurel Canyon Blvd", "zip": 91340, "lat": 34.2780075, "lon": -118.4530002, "name": "In-N-Out Burger", "rating": 4.6, "hours": "Monday: 10:30 AM – 1:00 AM, Tuesday: 10:30 AM – 1:00 AM, Wednesday: 10:30 AM – 1:00 AM, Thursday: 10:30 AM – 1:00 AM, Friday: 10:30 AM – 1:30 AM, Saturday: 10:30 AM – 1:30 AM, Sunday: 10:30 AM – 1:00 AM", "place_id": "ChIJ72X5gIO8woARJxRD3YiE0uM", "elevation": 310.89291381835938 }, "geometry": { "type": "Point", "coordinates": [ -118.4530002, 34.2780075 ] } },
{ "type": "Feature", "properties": { "field_1": 54, "city": "San Pedro", "street_address": "1090 N Western Ave", "zip": 90732, "lat": 33.7533976, "lon": -118.3086819, "name": "In-N-Out Burger", "rating": 4.6, "hours": "Monday: 10:30 AM – 1:00 AM, Tuesday: 10:30 AM – 1:00 AM, Wednesday: 10:30 AM – 1:00 AM, Thursday: 10:30 AM – 1:00 AM, Friday: 10:30 AM – 1:30 AM, Saturday: 10:30 AM – 1:30 AM, Sunday: 10:30 AM – 1:00 AM", "place_id": "ChIJG_xyqI66woARA1e62mBqpQE", "elevation": 90.002235412597656 }, "geometry": { "type": "Point", "coordinates": [ -118.3086819, 33.7533976 ] } },
{ "type": "Feature", "properties": { "field_1": 55, "city": "Santa Clarita", "street_address": "28368 Sand Canyon Rd", "zip": 91387, "lat": 34.4236905, "lon": -118.4231787, "name": "In-N-Out Burger", "rating": 4.7, "hours": "Monday: 10:30 AM – 1:00 AM, Tuesday: 10:30 AM – 1:00 AM, Wednesday: 10:30 AM – 1:00 AM, Thursday: 10:30 AM – 1:00 AM, Friday: 10:30 AM – 1:30 AM, Saturday: 10:30 AM – 1:30 AM, Sunday: 10:30 AM – 1:00 AM", "place_id": "ChIJw824OvwcTIYRuWhpPLzTRps", "elevation": 475.59573364257812 }, "geometry": { "type": "Point", "coordinates": [ -118.4231787, 34.4236905 ] } },
{ "type": "Feature", "properties": { "field_1": 56, "city": "Santa Clarita", "street_address": "26401 Bouquet Canyon Rd", "zip": 91350, "lat": 34.4254603, "lon": -118.5392378, "name": "In-N-Out Burger", "rating": 4.7, "hours": "Monday: 10:30 AM – 1:00 AM, Tuesday: 10:30 AM – 1:00 AM, Wednesday: 10:30 AM – 1:00 AM, Thursday: 10:30 AM – 1:00 AM, Friday: 10:30 AM – 1:30 AM, Saturday: 10:30 AM – 1:30 AM, Sunday: 10:30 AM – 1:00 AM", "place_id": "ChIJNY0rgHOHwoARDHBY_HsFI28", "elevation": 356.69253540039062 }, "geometry": { "type": "Point", "coordinates": [ -118.5392378, 34.4254603 ] } },
{ "type": "Feature", "properties": { "field_1": 57, "city": "Santa Fe Springs", "street_address": "10525 Carmenita Rd", "zip": 90670, "lat": 33.9395371, "lon": -118.0468306, "name": "In-N-Out Burger", "rating": 4.7, "hours": "Monday: 10:30 AM – 1:00 AM, Tuesday: 10:30 AM – 1:00 AM, Wednesday: 10:30 AM – 1:00 AM, Thursday: 10:30 AM – 1:00 AM, Friday: 10:30 AM – 1:30 AM, Saturday: 10:30 AM – 1:30 AM, Sunday: 10:30 AM – 1:00 AM", "place_id": "ChIJ_Uh4zBPTwoARv7HjxH0Uff8", "elevation": 48.874431610107422 }, "geometry": { "type": "Point", "coordinates": [ -118.0468306, 33.9395371 ] } },
{ "type": "Feature", "properties": { "field_1": 58, "city": "Sherman Oaks", "street_address": "4444 Van Nuys Blvd", "zip": 91403, "lat": 34.1521118, "lon": -118.4483226, "name": "In-N-Out Burger", "rating": 4.6, "hours": "Monday: 10:30 AM – 1:00 AM, Tuesday: 10:30 AM – 1:00 AM, Wednesday: 10:30 AM – 1:00 AM, Thursday: 10:30 AM – 1:00 AM, Friday: 10:30 AM – 1:30 AM, Saturday: 10:30 AM – 1:30 AM, Sunday: 10:30 AM – 1:00 AM", "place_id": "ChIJKwCdWzInTIYRA1pZzW_ykaI", "elevation": 201.6773986816406 }, "geometry": { "type": "Point", "coordinates": [ -118.4483226, 34.1521118 ] } },
{ "type": "Feature", "properties": { "field_1": 59, "city": "Signal Hill", "street_address": "799 E Spring St", "zip": 90755, "lat": 33.8120577, "lon": -118.1832562, "name": "In-N-Out Burger", "rating": 4.7, "hours": "Monday: 10:30 AM – 1:00 AM, Tuesday: 10:30 AM – 1:00 AM, Wednesday: 10:30 AM – 1:00 AM, Thursday: 10:30 AM – 1:00 AM, Friday: 10:30 AM – 1:30 AM, Saturday: 10:30 AM – 1:30 AM, Sunday: 10:30 AM – 1:00 AM", "place_id": "ChIJH30KBuoz3YAR5VOzz5LwgOM", "elevation": 34.985668182373047 }, "geometry": { "type": "Point", "coordinates": [ -118.1832562, 33.8120577 ] } },
{ "type": "Feature", "properties": { "field_1": 60, "city": "Simi Valley", "street_address": "2600 Stearns St", "zip": 93063, "lat": 34.2830572, "lon": -118.6908939, "name": "In-N-Out Burger", "rating": 4.7, "hours": "Monday: 10:30 AM – 1:00 AM, Tuesday: 10:30 AM – 1:00 AM, Wednesday: 10:30 AM – 1:00 AM, Thursday: 10:30 AM – 1:00 AM, Friday: 10:30 AM – 1:30 AM, Saturday: 10:30 AM – 1:30 AM, Sunday: 10:30 AM – 1:00 AM", "place_id": "ChIJO45wW8sp6IARblVjjZ1HIPo", "elevation": 314.66928100585938 }, "geometry": { "type": "Point", "coordinates": [ -118.6908939, 34.2830572 ] } },
{ "type": "Feature", "properties": { "field_1": 61, "city": "South Gate", "street_address": "4601 Firestone Blvd", "zip": 90280, "lat": 33.9527834, "lon": -118.1883747, "name": "In-N-Out Burger", "rating": 4.7, "hours": "Monday: 10:30 AM – 1:00 AM, Tuesday: 10:30 AM – 1:00 AM, Wednesday: 10:30 AM – 1:00 AM, Thursday: 10:30 AM – 1:00 AM, Friday: 10:30 AM – 1:30 AM, Saturday: 10:30 AM – 1:30 AM, Sunday: 10:30 AM – 1:00 AM", "place_id": "ChIJjxoi9xvMwoAReB8JXPKsAk0", "elevation": 34.470352172851562 }, "geometry": { "type": "Point", "coordinates": [ -118.1883747, 33.9527834 ] } },
{ "type": "Feature", "properties": { "field_1": 62, "city": "Studio City", "street_address": "3640 Cahuenga Blvd", "zip": 90068, "lat": 34.1350792, "lon": -118.3605992, "name": "In-N-Out Burger", "rating": 4.6, "hours": "Monday: 10:30 AM – 1:00 AM, Tuesday: 10:30 AM – 1:00 AM, Wednesday: 10:30 AM – 1:00 AM, Thursday: 10:30 AM – 1:00 AM, Friday: 10:30 AM – 1:30 AM, Saturday: 10:30 AM – 1:30 AM, Sunday: 10:30 AM – 1:00 AM", "place_id": "ChIJA3-xX2xow4ARnvqTG2afc78", "elevation": 186.50746154785159 }, "geometry": { "type": "Point", "coordinates": [ -118.3605992, 34.1350792 ] } },
{ "type": "Feature", "properties": { "field_1": 63, "city": "Temple City", "street_address": "10601 Lower Azusa Rd", "zip": 91780, "lat": 34.0924921, "lon": -118.0384377, "name": "In-N-Out Burger", "rating": 4.6, "hours": "Monday: 10:30 AM – 1:00 AM, Tuesday: 10:30 AM – 1:00 AM, Wednesday: 10:30 AM – 1:00 AM, Thursday: 10:30 AM – 1:00 AM, Friday: 10:30 AM – 1:30 AM, Saturday: 10:30 AM – 1:30 AM, Sunday: 10:30 AM – 1:00 AM", "place_id": "ChIJr11dmhPawoARGTIGqrQ7xNs", "elevation": 93.886955261230469 }, "geometry": { "type": "Point", "coordinates": [ -118.0384377, 34.0924921 ] } },
{ "type": "Feature", "properties": { "field_1": 64, "city": "Thousand Oaks", "street_address": "1550 Newbury Rd", "zip": 91320, "lat": 34.1836772, "lon": -118.914492, "name": "In-N-Out Burger", "rating": 4.7, "hours": "Monday: 10:30 AM – 1:00 AM, Tuesday: 10:30 AM – 1:00 AM, Wednesday: 10:30 AM – 1:00 AM, Thursday: 10:30 AM – 1:00 AM, Friday: 10:30 AM – 1:30 AM, Saturday: 10:30 AM – 1:30 AM, Sunday: 10:30 AM – 1:00 AM", "place_id": "ChIJUYK5j3g66IARypynMOLh86E", "elevation": 194.0152587890625 }, "geometry": { "type": "Point", "coordinates": [ -118.914492, 34.1836772 ] } },
{ "type": "Feature", "properties": { "field_1": 65, "city": "Torrance", "street_address": "24445 Crenshaw Blvd", "zip": 90505, "lat": 33.8028688, "lon": -118.3284331, "name": "In-N-Out Burger", "rating": 4.7, "hours": "Monday: 10:30 AM – 1:00 AM, Tuesday: 10:30 AM – 1:00 AM, Wednesday: 10:30 AM – 1:00 AM, Thursday: 10:30 AM – 1:00 AM, Friday: 10:30 AM – 1:30 AM, Saturday: 10:30 AM – 1:30 AM, Sunday: 10:30 AM – 1:00 AM", "place_id": "ChIJBROR1vVK3YARqhLiLMScBQk", "elevation": 24.338119506835941 }, "geometry": { "type": "Point", "coordinates": [ -118.3284331, 33.8028688 ] } },
{ "type": "Feature", "properties": { "field_1": 66, "city": "Torrance", "street_address": "730 W Carson St", "zip": 90502, "lat": 33.8311475, "lon": -118.2884053, "name": "In-N-Out Burger", "rating": 4.5, "hours": "Monday: 10:30 AM – 1:00 AM, Tuesday: 10:30 AM – 1:00 AM, Wednesday: 10:30 AM – 1:00 AM, Thursday: 10:30 AM – 1:00 AM, Friday: 10:30 AM – 1:30 AM, Saturday: 10:30 AM – 1:30 AM, Sunday: 10:30 AM – 1:00 AM", "place_id": "ChIJ9acaVF013YARO8jLjkmOUnw", "elevation": 13.125429153442379 }, "geometry": { "type": "Point", "coordinates": [ -118.2884053, 33.8311475 ] } },
{ "type": "Feature", "properties": { "field_1": 67, "city": "Torrance", "street_address": "20150 Hawthorne Blvd", "zip": 90503, "lat": 33.8488222, "lon": -118.3531803, "name": "In-N-Out Burger", "rating": 4.6, "hours": "Monday: 10:30 AM – 1:00 AM, Tuesday: 10:30 AM – 1:00 AM, Wednesday: 10:30 AM – 1:00 AM, Thursday: 10:30 AM – 1:00 AM, Friday: 10:30 AM – 1:30 AM, Saturday: 10:30 AM – 1:30 AM, Sunday: 10:30 AM – 1:00 AM", "place_id": "ChIJA7YvyNu0woARClTuaJOw6_s", "elevation": 30.900945663452148 }, "geometry": { "type": "Point", "coordinates": [ -118.3531803, 33.8488222 ] } },
{ "type": "Feature", "properties": { "field_1": 68, "city": "Tujunga", "street_address": "6225 Foothill Blvd", "zip": 91042, "lat": 34.2410526, "lon": -118.2667092, "name": "In-N-Out Burger", "rating": 4.6, "hours": "Monday: 10:30 AM – 1:00 AM, Tuesday: 10:30 AM – 1:00 AM, Wednesday: 10:30 AM – 1:00 AM, Thursday: 10:30 AM – 1:00 AM, Friday: 10:30 AM – 1:30 AM, Saturday: 10:30 AM – 1:30 AM, Sunday: 10:30 AM – 1:00 AM", "place_id": "ChIJa0KjiBHrwoARuGnd_VEuvrg", "elevation": 561.21282958984375 }, "geometry": { "type": "Point", "coordinates": [ -118.2667092, 34.2410526 ] } },
{ "type": "Feature", "properties": { "field_1": 69, "city": "Van Nuys", "street_address": "7220 Balboa Blvd", "zip": 91406, "lat": 34.2018619, "lon": -118.5007622, "name": "In-N-Out Burger", "rating": 4.6, "hours": "Monday: 10:30 AM – 1:00 AM, Tuesday: 10:30 AM – 1:00 AM, Wednesday: 10:30 AM – 1:00 AM, Thursday: 10:30 AM – 1:00 AM, Friday: 10:30 AM – 1:30 AM, Saturday: 10:30 AM – 1:30 AM, Sunday: 10:30 AM – 1:00 AM", "place_id": "ChIJx5m6Nlew3IARiAs-er3p6lk", "elevation": 231.43086242675781 }, "geometry": { "type": "Point", "coordinates": [ -118.5007622, 34.2018619 ] } },
{ "type": "Feature", "properties": { "field_1": 70, "city": "Van Nuys", "street_address": "7930 Van Nuys Blvd", "zip": 91402, "lat": 34.2150465, "lon": -118.4483102, "name": "In-N-Out Burger", "rating": 4.6, "hours": "Monday: 10:30 AM – 1:00 AM, Tuesday: 10:30 AM – 1:00 AM, Wednesday: 10:30 AM – 1:00 AM, Thursday: 10:30 AM – 1:00 AM, Friday: 10:30 AM – 1:30 AM, Saturday: 10:30 AM – 1:30 AM, Sunday: 10:30 AM – 1:00 AM", "place_id": "ChIJWRIFiy6XwoARYuWRlr2PwLo", "elevation": 238.95365905761719 }, "geometry": { "type": "Point", "coordinates": [ -118.4483102, 34.2150465 ] } },
{ "type": "Feature", "properties": { "field_1": 71, "city": "Ventura", "street_address": "2070 E Harbor Blvd", "zip": 93001, "lat": 34.2684093, "lon": -119.2728124, "name": "In-N-Out Burger", "rating": 4.6, "hours": "Monday: 10:30 AM – 1:00 AM, Tuesday: 10:30 AM – 1:00 AM, Wednesday: 10:30 AM – 1:00 AM, Thursday: 10:30 AM – 1:00 AM, Friday: 10:30 AM – 1:30 AM, Saturday: 10:30 AM – 1:30 AM, Sunday: 10:30 AM – 1:00 AM", "place_id": "ChIJZ6xrwO5w3IARy1aJxHUwwCc", "elevation": 4.1026482582092294 }, "geometry": { "type": "Point", "coordinates": [ -119.2728124, 34.2684093 ] } },
{ "type": "Feature", "properties": { "field_1": 72, "city": "West Covina", "street_address": "2940 E Garvey Ave N", "zip": 91791, "lat": 34.0714295, "lon": -117.8819188, "name": "In-N-Out Burger", "rating": 4.7, "hours": "Monday: 10:30 AM – 1:00 AM, Tuesday: 10:30 AM – 1:00 AM, Wednesday: 10:30 AM – 1:00 AM, Thursday: 10:30 AM – 1:00 AM, Friday: 10:30 AM – 1:30 AM, Saturday: 10:30 AM – 1:30 AM, Sunday: 10:30 AM – 1:00 AM", "place_id": "ChIJ01MnxKspw4ARhxjy_TtMxok", "elevation": 153.03553771972659 }, "geometry": { "type": "Point", "coordinates": [ -117.8819188, 34.0714295 ] } },
{ "type": "Feature", "properties": { "field_1": 73, "city": "West Covina", "street_address": "15610 E San Bernardino Rd", "zip": 91722, "lat": 34.0897655, "lon": -117.9409869, "name": "In-N-Out Burger", "rating": 4.6, "hours": "Monday: 10:30 AM – 1:00 AM, Tuesday: 10:30 AM – 1:00 AM, Wednesday: 10:30 AM – 1:00 AM, Thursday: 10:30 AM – 1:00 AM, Friday: 10:30 AM – 1:30 AM, Saturday: 10:30 AM – 1:30 AM, Sunday: 10:30 AM – 1:00 AM", "place_id": "ChIJeyBJXe7XwoARkmRhIpn-bXo", "elevation": 125.30490875244141 }, "geometry": { "type": "Point", "coordinates": [ -117.9409869, 34.0897655 ] } },
{ "type": "Feature", "properties": { "field_1": 74, "city": "Westchester", "street_address": "9149 S Sepulveda Blvd", "zip": 90045, "lat": 33.9537068, "lon": -118.3967825, "name": "In-N-Out Burger", "rating": 4.6, "hours": "Monday: 10:30 AM – 1:00 AM, Tuesday: 10:30 AM – 1:00 AM, Wednesday: 10:30 AM – 1:00 AM, Thursday: 10:30 AM – 1:00 AM, Friday: 10:30 AM – 1:30 AM, Saturday: 10:30 AM – 1:30 AM, Sunday: 10:30 AM – 1:00 AM", "place_id": "ChIJ5xHkkNOwwoARfN2_9LZe2qc", "elevation": 33.199314117431641 }, "geometry": { "type": "Point", "coordinates": [ -118.3967825, 33.9537068 ] } },
{ "type": "Feature", "properties": { "field_1": 75, "city": "Westlake Village", "street_address": "30780 Russell Ranch Rd", "zip": 91362, "lat": 34.147567, "lon": -118.7975419, "name": "In-N-Out Burger", "rating": 4.7, "hours": "Monday: 10:30 AM – 12:00 AM, Tuesday: 10:30 AM – 12:00 AM, Wednesday: 10:30 AM – 12:00 AM, Thursday: 10:30 AM – 12:00 AM, Friday: 10:30 AM – 12:30 AM, Saturday: 10:30 AM – 12:30 AM, Sunday: 10:30 AM – 12:00 AM", "place_id": "ChIJByzPq24k6IAR-GAGSDCFxrw", "elevation": 299.1280517578125 }, "geometry": { "type": "Point", "coordinates": [ -118.7975419, 34.147567 ] } },
{ "type": "Feature", "properties": { "field_1": 76, "city": "Westwood", "street_address": "922 Gayley Ave", "zip": 90024, "lat": 34.0630706, "lon": -118.448026, "name": "In-N-Out Burger", "rating": 4.5, "hours": "Monday: 10:30 AM – 1:00 AM, Tuesday: 10:30 AM – 1:00 AM, Wednesday: 10:30 AM – 1:00 AM, Thursday: 10:30 AM – 1:00 AM, Friday: 10:30 AM – 1:30 AM, Saturday: 10:30 AM – 1:30 AM, Sunday: 10:30 AM – 1:00 AM", "place_id": "ChIJKZm9foS8woAR4oa_Lf37xIQ", "elevation": 102.5284805297852 }, "geometry": { "type": "Point", "coordinates": [ -118.448026, 34.0630706 ] } },
{ "type": "Feature", "properties": { "field_1": 77, "city": "Woodland Hills", "street_address": "19920 Ventura Blvd", "zip": 91364, "lat": 34.1719563, "lon": -118.5666003, "name": "In-N-Out Burger", "rating": 4.6, "hours": "Monday: 10:30 AM – 1:00 AM, Tuesday: 10:30 AM – 1:00 AM, Wednesday: 10:30 AM – 1:00 AM, Thursday: 10:30 AM – 1:00 AM, Friday: 10:30 AM – 1:30 AM, Saturday: 10:30 AM – 1:30 AM, Sunday: 10:30 AM – 1:00 AM", "place_id": "ChIJs85MureewoARtoHg_4bLlnw", "elevation": 257.67120361328119 }, "geometry": { "type": "Point", "coordinates": [ -118.5666003, 34.1719563 ] } }
]
}
